[
{"_id":703448,"name":"Kyiv","country":"UA","coord":{"lon":30.516666,"lat":50.433334}},
{"_id":7839394,"name":"Sunshine Coast","country":"AU","coord":{"lon":152.851135,"lat":-26.56098}},
{"_id":3987342,"name":"San Diego","country":"MX","coord":{"lon":-102.316673,"lat":22.466669}},
{"_id":7910036,"name":"Christchurch City","country":"NZ","coord":{"lon":172.745865,"lat":-43.645779}},
{"_id":2643123,"name":"Manchester","country":"GB","coord":{"lon":-2.23743,"lat":53.480949}}
]